[{"latitude": "12.926862", "longitude": "77.625427", "user_id": 5 , "name": "Ian Kehoe"},
{"latitude": "12.933329", "longitude": "77.612847", "user_id": 10, "name": "Nora Dempsey"},
{"latitude": "12.933873", "longitude": "77.620035", "user_id": 17, "name": "Theresa Enright"},
{"latitude": "12.928226", "longitude": "77.619520", "user_id": 3 , "name": "Frank Kehoe"},
{"latitude": "12.933894", "longitude": "77.615015", "user_id": 22, "name": "Eoin Ahearn"},
{"latitude": "12.935651", "longitude": "77.614757", "user_id": 11, "name": "Jack Dempsey"},
{"latitude": "12.936195", "longitude": "77.611077", "user_id": 1 , "name": "Georgina Gallagher"},
{"latitude": "12.937031", "longitude": "77.610165", "user_id": 15, "name": "Richard Finnegan"},
{"latitude": "12.936696", "longitude": "77.620765", "user_id": 12, "name": "Christina McArdle"},
{"latitude": "12.929283", "longitude": "77.622546", "user_id": 18, "name": "Olive Ahearn"},
{"latitude": "12.926829", "longitude": "77.623123", "user_id": 6 , "name": "Helen Cahill"},
{"latitude": "12.929381", "longitude": "77.620945", "user_id": 23, "name": "Michael Ahearn"},
{"latitude": "12.918734", "longitude": "77.621447", "user_id": 4 , "name": "Ian Larkin"},
{"latitude": "12.926095", "longitude": "77.608851", "user_id": 21, "name": "Patricia Cahill"},
{"latitude": "12.916391", "longitude": "77.615417", "user_id": 13, "name": "Bob Larkin"},
{"latitude": "12.922665", "longitude": "77.603358", "user_id": 19, "name": "Enid Cahill"},
{"latitude": "12.934773", "longitude": "77.614545", "user_id": 2 , "name": "Enid Enright"},
{"latitude": "12.935620", "longitude": "77.613955", "user_id": 20, "name": "David Ahearn"},
{"latitude": "12.934564", "longitude": "77.612775", "user_id": 7 , "name": "Charlie McArdle"},
{"latitude": "12.933058", "longitude": "77.612646", "user_id": 14, "name": "Eoin Gallagher"},
{"latitude": "12.936028", "longitude": "77.613816", "user_id": 8 , "name": "Rose Enright"},
{"latitude": "12.928802", "longitude": "77.600523", "user_id": 16, "name": "David Behan"}]
