[{"latitude": "12.926862", "longitude": "77.625427", "user_id": 5 , "name": "Ian Kehoe"},
{"latitude": "12.933329", "longitude": "77.612847", "user_id": 10, "name": "Nora Dempsey"},
{"latitude": "12.476782", "longitude": "76.768327", "user_id": 17, "name": "Theresa Enright"},
{"latitude": "9.931577", "longitude": "78.164449", "user_id": 3 , "name": "Frank Kehoe"},
{"latitude": "12.972849", "longitude": "77.678119", "user_id": 22, "name": "Eoin Ahearn"},
{"latitude": "13.072940", "longitude": "80.266678", "user_id": 11, "name": "Jack Dempsey"},
{"latitude": "12.936195", "longitude": "77.611077", "user_id": 1 , "name": "Georgina Gallagher"},
{"latitude": "12.937031", "longitude": "77.610165", "user_id": 15, "name": "Richard Finnegan"},
{"latitude": "12.920243", "longitude": "79.070738", "user_id": 12, "name": "Christina McArdle"},
{"latitude": "12.929283", "longitude": "77.622546", "user_id": 18, "name": "Olive Ahearn"},
{"latitude": "21.157105", "longitude": "79.249376", "user_id": 6 , "name": "Helen Cahill"},
{"latitude": "12.929381", "longitude": "77.620945", "user_id": 23, "name": "Michael Ahearn"},
{"latitude": "27.078205", "longitude": "78.782506", "user_id": 4 , "name": "Ian Larkin"},
{"latitude": "22.664206", "longitude": "75.904088", "user_id": 21, "name": "Patricia Cahill"},
{"latitude": "12.916391", "longitude": "77.615417", "user_id": 13, "name": "Bob Larkin"},
{"latitude": "19.110036", "longitude": "73.059375", "user_id": 19, "name": "Enid Cahill"},
{"latitude": "13.074140", "longitude": "77.306445", "user_id": 2 , "name": "Enid Enright"},
{"latitude": "12.682772", "longitude": "77.940741", "user_id": 20, "name": "David Ahearn"},
{"latitude": "12.934564", "longitude": "77.612775", "user_id": 7 , "name": "Charlie McArdle"},
{"latitude": "17.364465", "longitude": "78.532205", "user_id": 14, "name": "Eoin Gallagher"},
{"latitude": "12.626915", "longitude": "77.431626", "user_id": 8 , "name": "Rose Enright"},
{"latitude": "18.563663", "longitude": "73.838245", "user_id": 16, "name": "David Behan"}]